{
    "features": [{
            "type": "Feature",
            "properties": {
                "title": "ARoS Aarhus Kunstmuseum",
                "description": "Aarhus art museum"
            },
            "geometry": {
                "coordinates": [
                    10.200788,
                    56.153861
                ],
                "type": "Point"
            },
            "id": "00a9d4f2957a20b1d0a5501b6ead20d2"
        },
        {
            "type": "Feature",
            "properties": {
                "title": "Kvicly Extra",
                "description": "Grocery shop"
            },
            "geometry": {
                "coordinates": [
                    10.154628,
                    56.116856
                ],
                "type": "Point"
            },
            "id": "012b95b2b688f775e5e5dbd8eb07bc28"
        },
        {
            "type": "Feature",
            "properties": {
                "title": "Moesgaard Museum",
                "description": "The Moesgaard Museum is a Danish regional museum dedicated to archeology and ethnography"
            },
            "geometry": {
                "coordinates": [
                    10.223725,
                    56.088769
                ],
                "type": "Point"
            },
            "id": "112b4efc97d7429e994489a8d361e022"
        },
        {
            "type": "Feature",
            "properties": {
                "title": "Fakta",
                "description": "Grocery shop"
            },
            "geometry": {
                "coordinates": [
                    10.151441,
                    56.11622
                ],
                "type": "Point"
            },
            "id": "18bb183ceb03d5e6b22454a0df263253"
        },
        {
            "type": "Feature",
            "properties": {
                "name": "Bowl'n'Fun",
                "description": "Bowling"
            },
            "geometry": {
                "coordinates": [
                    10.153764,
                    56.12492
                ],
                "type": "Point"
            },
            "id": "4ade1f1a21ffa31cb1fba258f9cfba35"
        },
        {
            "type": "Feature",
            "properties": {
                "title": "Tilst Bibliotek",
                "description": "A large park near in Chicago's North Lawndale neighborhood"
            },
            "geometry": {
                "coordinates": [
                    10.110923,
                    56.188204
                ],
                "type": "Point"
            },
            "id": "5370a0e087ebdd39ec8759b3f32f3028"
        },
        {
            "type": "Feature",
            "properties": {
                "title": "Mac Donald's Viby",
                "description": "Restaurant"
            },
            "geometry": {
                "coordinates": [
                    10.151452,
                    56.115833
                ],
                "type": "Point"
            },
            "id": "588be028926287ff67a6a21cd5b58676"
        },
        {
            "type": "Feature",
            "properties": {
                "title": "Guldtanden",
                "description": "The Golden Tooth of the Business Academy Aarhus"
            },
            "geometry": {
                "coordinates": [
                    10.15,
                    56.117
                ],
                "type": "Point"
            },
            "id": "5fde908f07ab3a8ae63175eee08dc2d0"
        },
        {
            "type": "Feature",
            "properties": {
                "title": "Den Gamle by",
                "description": "The Old City of Aarhus"
            },
            "geometry": {
                "coordinates": [
                    10.191841,
                    56.159015
                ],
                "type": "Point"
            },
            "id": "8bde1432d355e69428f5ff7c6ad54eae"
        },
        {
            "type": "Feature",
            "properties": {
                "title": "Pizza Fun",
                "description": "Restaurant"
            },
            "geometry": {
                "coordinates": [
                    10.150841,
                    56.112983
                ],
                "type": "Point"
            },
            "id": "92606bf019099209fbe1210f94fabd1f"
        }
    ],
    "type": "FeatureCollection"
}